,country_name,state_name,county_code_fips,county_name,Latitude,longitude,confirmed,deaths,recovered,active,refresh_date,combined_key,last_updated,incidence_rate,case_fatality_ratio
0,Afghanistan,,,,33.93911,67.709953,158189,7361,,,2022-01-02,Afghanistan,2022-01-03 02:22:25+00:00,406.3594695699979,4.6532944768599585
1,Albania,,,,41.1533,20.1683,210885,3220,,,2022-01-02,Albania,2022-01-03 02:22:25+00:00,7327.993606226979,1.5268985466012281
2,Algeria,,,,28.0339,1.6596,219159,6291,,,2022-01-02,Algeria,2022-01-03 02:22:25+00:00,499.78058674681915,2.8705186645312306
3,Andorra,,,,42.5063,1.5218,23740,140,,,2022-01-02,Andorra,2022-01-03 02:22:25+00:00,30725.425483724845,0.5897219882055602
4,Angola,,,,-11.2027,17.8739,82920,1772,,,2022-01-02,Angola,2022-01-03 02:22:25+00:00,252.2951495435989,2.1369995176073324
5,Antigua and Barbuda,,,,17.0608,-61.7964,4283,119,,,2022-01-02,Antigua and Barbuda,2022-01-03 02:22:25+00:00,4373.621436157177,2.7784263366798974
6,Argentina,,,,-38.4161,-63.6167,5694930,117204,,,2022-01-02,Argentina,2022-01-03 02:22:25+00:00,12600.579917013045,2.05804109971501
7,Armenia,,,,40.0691,45.0382,345007,7977,,,2022-01-02,Armenia,2022-01-03 02:22:25+00:00,11642.921213781969,2.3121270003217327
8,Australia,Australian Capital Territory,,,-35.4735,149.0124,5323,15,,,2022-01-02,"Australian Capital Territory, Australia",2022-01-03 02:22:25+00:00,1243.4010745153005,0.2817959797106895
9,Australia,New South Wales,,,-33.8688,151.2093,249064,673,,,2022-01-02,"New South Wales, Australia",2022-01-03 02:22:25+00:00,3068.0463168268047,0.2702116725018469
10,Australia,Northern Territory,,,-12.4634,130.8456,624,1,,,2022-01-02,"Northern Territory, Australia",2022-01-03 02:22:25+00:00,296.0097719869707,0.16025641025641027
11,Australia,Queensland,,,-27.4698,153.0251,19707,7,,,2022-01-02,"Queensland, Australia",2022-01-03 02:22:25+00:00,468.00899227836965,0.03552037347135536
12,Australia,South Australia,,,-34.9285,138.6007,15473,8,,,2022-01-02,"South Australia, Australia",2022-01-03 02:22:25+00:00,880.8995160831198,0.05170296645770051
13,Australia,Tasmania,,,-42.8821,147.3272,1628,13,,,2022-01-02,"Tasmania, Australia",2022-01-03 02:22:25+00:00,392.7170868347339,0.7985257985257985
14,Australia,Victoria,,,-37.8136,144.9631,199576,1540,,,2022-01-02,"Victoria, Australia",2022-01-03 02:22:25+00:00,3010.241481771973,0.7716358680402453
15,Australia,Western Australia,,,-31.9505,115.8605,1168,9,,,2022-01-02,"Western Australia, Australia",2022-01-03 02:22:25+00:00,44.40051699232113,0.7705479452054794
16,Austria,,,,47.5162,14.5501,1285510,13752,,,2022-01-02,Austria,2022-01-03 02:22:25+00:00,14273.294546100551,1.069769974562625
17,Azerbaijan,,,,40.1431,47.5769,617679,8375,,,2022-01-02,Azerbaijan,2022-01-03 02:22:25+00:00,6092.00452699554,1.3558822624696647
18,Bahamas,,,,25.025885,-78.035889,25285,717,,,2022-01-02,Bahamas,2022-01-03 02:22:25+00:00,6429.784766864676,2.835673324105201
19,Bahrain,,,,26.0275,50.55,283344,1395,,,2022-01-02,Bahrain,2022-01-03 02:22:25+00:00,16651.788364129166,0.4923344062341182
20,Bangladesh,,,,23.685,90.3563,1586466,28077,,,2022-01-02,Bangladesh,2022-01-03 02:22:25+00:00,963.3079990347647,1.7697826489820772
21,Barbados,,,,13.1939,-59.5432,28960,262,,,2022-01-02,Barbados,2022-01-03 02:22:25+00:00,10077.565237967645,0.9046961325966851
22,Belarus,,,,53.7098,27.9534,701192,5609,,,2022-01-02,Belarus,2022-01-03 02:22:25+00:00,7420.5543445925905,0.7999235587399742
23,Belgium,Antwerp,,,51.2195,4.4024,303202,0,,,2022-01-02,"Antwerp, Belgium",2022-01-03 02:22:25+00:00,16318.852779299736,0.0
24,Belgium,Brussels,,,50.8503,4.3517,249566,0,,,2022-01-02,"Brussels, Belgium",2022-01-03 02:22:25+00:00,20650.17185997673,0.0
25,Belgium,East Flanders,,,51.0362,3.7373,260967,0,,,2022-01-02,"East Flanders, Belgium",2022-01-03 02:22:25+00:00,17224.816905424457,0.0
26,Belgium,Flemish Brabant,,,50.9167,4.5833,184728,0,,,2022-01-02,"Flemish Brabant, Belgium",2022-01-03 02:22:25+00:00,16116.910593931987,0.0
27,Belgium,Hainaut,,,50.5257,4.0621,252893,0,,,2022-01-02,"Hainaut, Belgium",2022-01-03 02:22:25+00:00,18813.069977779283,0.0
28,Belgium,Liege,,,50.4496,5.8492,226576,0,,,2022-01-02,"Liege, Belgium",2022-01-03 02:22:25+00:00,20467.717923887438,0.0
29,Belgium,Limburg,,,50.9739,5.3420000000000005,139220,0,,,2022-01-02,"Limburg, Belgium",2022-01-03 02:22:25+00:00,15928.187010324375,0.0
30,Belgium,Luxembourg,,,50.0547,5.4677,56074,0,,,2022-01-02,"Luxembourg, Belgium",2022-01-03 02:22:25+00:00,19700.110315558708,0.0
31,Belgium,Namur,,,50.331,4.8221,100334,0,,,2022-01-02,"Namur, Belgium",2022-01-03 02:22:25+00:00,20297.172912557533,0.0
32,Belgium,Unknown,,,,,34742,28331,,,2022-01-02,"Unknown, Belgium",2022-01-03 02:22:25+00:00,,81.54683092510506
33,Belgium,Walloon Brabant,,,50.4,4.35,81063,0,,,2022-01-02,"Walloon Brabant, Belgium",2022-01-03 02:22:25+00:00,20085.03489850074,0.0
34,Belgium,West Flanders,,,51.0536,3.1458,215978,0,,,2022-01-02,"West Flanders, Belgium",2022-01-03 02:22:25+00:00,18061.441918186712,0.0
35,Belize,,,,17.1899,-88.4976,32840,602,,,2022-01-02,Belize,2022-01-03 02:22:25+00:00,8259.12112287832,1.8331303288672351
36,Benin,,,,9.3077,2.3158,24935,161,,,2022-01-02,Benin,2022-01-03 02:22:25+00:00,205.6800524086136,0.64567876478845
37,Bhutan,,,,27.5142,90.4336,2660,3,,,2022-01-02,Bhutan,2022-01-03 02:22:25+00:00,344.7328450050025,0.11278195488721804
38,Bolivia,,,,-16.2902,-63.5887,611031,19722,,,2022-01-02,Bolivia,2022-01-03 02:22:25+00:00,5234.553944824433,3.227659480451892
39,Bosnia and Herzegovina,,,,43.9159,17.6791,291313,13442,,,2022-01-02,Bosnia and Herzegovina,2022-01-03 02:22:25+00:00,8879.287616034431,4.61428085941925
40,Botswana,,,,-22.3285,24.6849,219509,2444,,,2022-01-02,Botswana,2022-01-03 02:22:25+00:00,9334.353904215171,1.113393983845765
41,Brazil,Acre,,,-9.0238,-70.812,88386,1851,,,2022-01-02,"Acre, Brazil",2022-01-03 02:22:25+00:00,10021.827005391551,2.094223067001561
42,Brazil,Alagoas,,,-9.5713,-36.782,242104,6383,,,2022-01-02,"Alagoas, Brazil",2022-01-03 02:22:25+00:00,7254.363258111134,2.636470277236229
43,Brazil,Amapa,,,0.902,-52.003,127033,2022,,,2022-01-02,"Amapa, Brazil",2022-01-03 02:22:25+00:00,15020.497061122272,1.5917123896940164
44,Brazil,Amazonas,,,-3.4168,-65.8561,433882,13837,,,2022-01-02,"Amazonas, Brazil",2022-01-03 02:22:25+00:00,10468.617334809633,3.1891159347472353
45,Brazil,Bahia,,,-12.5797,-41.7007,1271155,27510,,,2022-01-02,"Bahia, Brazil",2022-01-03 02:22:25+00:00,8546.692194695053,2.1641735272252403
46,Brazil,Ceara,,,-5.4984,-39.3206,957203,24812,,,2022-01-02,"Ceara, Brazil",2022-01-03 02:22:25+00:00,10481.765486453358,2.592135628492598
47,Brazil,Distrito Federal,,,-15.7998,-47.8645,519811,11108,,,2022-01-02,"Distrito Federal, Brazil",2022-01-03 02:22:25+00:00,17239.296805458092,2.1369305382148513
48,Brazil,Espirito Santo,,,-19.1834,-40.3089,630104,13331,,,2022-01-02,"Espirito Santo, Brazil",2022-01-03 02:22:25+00:00,15679.494357557884,2.1156824905095033
49,Brazil,Goias,,,-15.827,-49.8362,947907,24695,,,2022-01-02,"Goias, Brazil",2022-01-03 02:22:25+00:00,13506.11553649189,2.605213380637552
50,Brazil,Maranhao,,,-4.9609,-45.2744,370697,10378,,,2022-01-02,"Maranhao, Brazil",2022-01-03 02:22:25+00:00,5239.399529142788,2.799591040661241
51,Brazil,Mato Grosso,,,-12.6819,-56.9211,557987,14059,,,2022-01-02,"Mato Grosso, Brazil",2022-01-03 02:22:25+00:00,16013.558462042678,2.5195927503687363
52,Brazil,Mato Grosso do Sul,,,-20.7722,-54.7852,380515,9729,,,2022-01-02,"Mato Grosso do Sul, Brazil",2022-01-03 02:22:25+00:00,13692.584273544375,2.556798023730996
53,Brazil,Minas Gerais,,,-18.5122,-44.555,2224553,56659,,,2022-01-02,"Minas Gerais, Brazil",2022-01-03 02:22:25+00:00,10508.64454186354,2.546983596255068
54,Brazil,Para,,,-1.9981,-54.9306,625533,17093,,,2022-01-02,"Para, Brazil",2022-01-03 02:22:25+00:00,7271.21720496602,2.7325496816315047
55,Brazil,Paraiba,,,-7.24,-36.782,464565,9599,,,2022-01-02,"Paraiba, Brazil",2022-01-03 02:22:25+00:00,11561.730129485702,2.066234003853067
56,Brazil,Parana,,,-25.2521,-52.0215,1599536,40890,,,2022-01-02,"Parana, Brazil",2022-01-03 02:22:25+00:00,13989.347694765689,2.55636634624041
57,Brazil,Pernambuco,,,-8.8137,-36.9541,645946,20460,,,2022-01-02,"Pernambuco, Brazil",2022-01-03 02:22:25+00:00,6758.828097018428,3.1674474336864074
58,Brazil,Piaui,,,-7.7183,-42.7289,334548,7279,,,2022-01-02,"Piaui, Brazil",2022-01-03 02:22:25+00:00,10220.739349883159,2.1757714886951947
59,Brazil,Rio Grande do Norte,,,-5.4026,-36.9541,387375,7572,,,2022-01-02,"Rio Grande do Norte, Brazil",2022-01-03 02:22:25+00:00,11046.228627205075,1.9546950629235238
60,Brazil,Rio Grande do Sul,,,-30.0346,-51.2177,1507117,36444,,,2022-01-02,"Rio Grande do Sul, Brazil",2022-01-03 02:22:25+00:00,13246.772789074748,2.4181267944028235
61,Brazil,Rio de Janeiro,,,-22.9068,-43.1729,1352925,69472,,,2022-01-02,"Rio de Janeiro, Brazil",2022-01-03 02:22:25+00:00,7836.255236985144,5.134948352643347
62,Brazil,Rondonia,,,-11.5057,-63.5806,284692,6739,,,2022-01-02,"Rondonia, Brazil",2022-01-03 02:22:25+00:00,16018.905878546611,2.367119553763365
63,Brazil,Roraima,,,-2.7376,-62.0751,129086,2078,,,2022-01-02,"Roraima, Brazil",2022-01-03 02:22:25+00:00,21309.724462287933,1.6097795268270765
64,Brazil,Santa Catarina,,,-27.2423,-50.2189,1244089,20189,,,2022-01-02,"Santa Catarina, Brazil",2022-01-03 02:22:25+00:00,17363.933168713436,1.6227938676413023
65,Brazil,Sao Paulo,,,-23.5505,-46.6333,4456581,155216,,,2022-01-02,"Sao Paulo, Brazil",2022-01-03 02:22:25+00:00,9705.298992581487,3.4828492963552105
66,Brazil,Sergipe,,,-10.5741,-37.3857,278539,6057,,,2022-01-02,"Sergipe, Brazil",2022-01-03 02:22:25+00:00,12117.261264647437,2.1745608334918987
67,Brazil,Tocantins,,,-10.1753,-48.2982,235558,3939,,,2022-01-02,"Tocantins, Brazil",2022-01-03 02:22:25+00:00,14976.355264847736,1.6721996281170668
68,Brunei,,,,4.5353,114.7277,15470,98,,,2022-01-02,Brunei,2022-01-03 02:22:25+00:00,3536.1374041962767,0.6334841628959276
69,Bulgaria,,,,42.7339,25.4858,749540,31027,,,2022-01-02,Bulgaria,2022-01-03 02:22:25+00:00,10787.161731869504,4.139472209621902
70,Burkina Faso,,,,12.2383,-1.5616,17632,318,,,2022-01-02,Burkina Faso,2022-01-03 02:22:25+00:00,84.3504066682747,1.8035390199637023
71,Burma,,,,21.9162,95.956,531025,19274,,,2022-01-02,Burma,2022-01-03 02:22:25+00:00,975.9731860039757,3.62958429452474
72,Burundi,,,,-3.3731,29.9189,27366,38,,,2022-01-02,Burundi,2022-01-03 02:22:25+00:00,230.1446809927792,0.13885843747716145
73,Cabo Verde,,,,16.5388,-23.0418,42811,352,,,2022-01-02,Cabo Verde,2022-01-03 02:22:25+00:00,7699.986330640229,0.8222185886804794
74,Cambodia,,,,11.55,104.9167,120510,3013,,,2022-01-02,Cambodia,2022-01-03 02:22:25+00:00,720.7979486297332,2.5002074516637625
75,Cameroon,,,,3.8480000000000003,11.5021,109367,1851,,,2022-01-02,Cameroon,2022-01-03 02:22:25+00:00,411.9926177577042,1.6924666489891833
76,Canada,Alberta,,,53.9333,-116.5765,361623,3310,,,2022-01-02,"Alberta, Canada",2022-01-03 02:22:25+00:00,8194.222443581064,0.9153178863070104
77,Canada,British Columbia,,,53.7267,-127.6476,254849,2423,,,2022-01-02,"British Columbia, Canada",2022-01-03 02:22:25+00:00,4986.365460444769,0.9507590769436018
78,Canada,Manitoba,,,53.7609,-98.8139,80096,1392,,,2022-01-02,"Manitoba, Canada",2022-01-03 02:22:25+00:00,5814.519893402405,1.7379145025968838
79,Canada,New Brunswick,,,46.5653,-66.4619,14272,160,,,2022-01-02,"New Brunswick, Canada",2022-01-03 02:22:25+00:00,1829.7600106667624,1.1210762331838564
80,Canada,Newfoundland and Labrador,,,53.1355,-57.6604,4155,19,,,2022-01-02,"Newfoundland and Labrador, Canada",2022-01-03 02:22:25+00:00,796.9464770362413,0.457280385078219
81,Canada,Northwest Territories,,,64.8255,-124.8457,2229,12,,,2022-01-02,"Northwest Territories,Canada",2022-01-03 02:22:25+00:00,4963.9230358097275,0.5383580080753702
82,Canada,Nova Scotia,,,44.681999999999995,-63.7443,10199,111,,,2022-01-02,"Nova Scotia, Canada",2022-01-03 02:22:25+00:00,1043.421858966686,1.088341994313168
83,Canada,Nunavut,,,70.2998,-83.1076,875,4,,,2022-01-02,"Nunavut, Canada",2022-01-03 02:22:25+00:00,2256.317689530686,0.45714285714285713
84,Canada,Ontario,,,51.2538,-85.3232,776342,10254,,,2022-01-02,"Ontario, Canada",2022-01-03 02:22:25+00:00,5276.992449680111,1.3208096431727254
85,Canada,Prince Edward Island,,,46.5107,-63.4168,1366,0,,,2022-01-02,"Prince Edward Island, Canada",2022-01-03 02:22:25+00:00,863.6932687565599,0.0
86,Canada,Quebec,,,52.9399,-73.5491,636034,11745,,,2022-01-02,"Quebec, Canada",2022-01-03 02:22:25+00:00,7449.733967354575,1.8465993956297935
87,Canada,Repatriated Travellers,,,,,13,0,,,2022-01-02,"Repatriated Travellers, Canada",2022-01-03 02:22:25+00:00,,0.0
88,Canada,Saskatchewan,,,52.9399,-106.4509,85188,955,,,2022-01-02,"Saskatchewan, Canada",2022-01-03 02:22:25+00:00,7209.143700504203,1.1210499131333052
89,Canada,Yukon,,,64.2823,-135.0,1755,15,,,2022-01-02,"Yukon, Canada",2022-01-03 02:22:25+00:00,4272.359900676761,0.8547008547008547
90,Central African Republic,,,,6.6111,20.9394,12163,101,,,2022-01-02,Central African Republic,2022-01-03 02:22:25+00:00,251.8342511145472,0.830387239990134
91,Chad,,,,15.4542,18.7322,6183,184,,,2022-01-02,Chad,2022-01-03 02:22:25+00:00,37.64186700981666,2.9759016658579975
92,Chile,Antofagasta,,,-23.6509,-70.3975,67097,1286,,,2022-01-02,"Antofagasta, Chile",2022-01-03 02:22:25+00:00,11044.155553434046,1.9166281651936747
93,Chile,Araucania,,,-38.9489,-72.3311,104423,1561,,,2022-01-02,"Araucania, Chile",2022-01-03 02:22:25+00:00,10908.940853969394,1.4948813958610652
94,Chile,Arica y Parinacota,,,-18.594,-69.4785,29033,546,,,2022-01-02,"Arica y Parinacota, Chile",2022-01-03 02:22:25+00:00,12842.596033052005,1.8806186064133916
95,Chile,Atacama,,,-27.5661,-70.0503,30891,382,,,2022-01-02,"Atacama, Chile",2022-01-03 02:22:25+00:00,10690.998947893017,1.236606131235635
96,Chile,Aysen,,,-45.9864,-73.7669,10343,98,,,2022-01-02,"Aysen, Chile",2022-01-03 02:22:25+00:00,10026.367320033349,0.947500725128106
97,Chile,Biobio,,,-37.4464,-72.1416,168140,2845,,,2022-01-02,"Biobio, Chile",2022-01-03 02:22:25+00:00,10800.325024649845,1.6920423456643274
98,Chile,Coquimbo,,,-29.959,-71.3389,54934,1099,,,2022-01-02,"Coquimbo, Chile",2022-01-03 02:22:25+00:00,7251.189963911688,2.000582517202461
99,Chile,Los Lagos,,,-41.9198,-72.1416,99599,1518,,,2022-01-02,"Los Lagos, Chile",2022-01-03 02:22:25+00:00,12018.587970672419,1.524111687868352
